{
"type": "FeatureCollection",
"name": "29_stops",
"crs": { "type": "name", "properties": { "name": "urn:ogc:def:crs:OGC:1.3:CRS84" } },
"features": [
{ "type": "Feature", "properties": { "transport_id": "4714727743", "line_id": "4714727133", "stop_id": "5402422056", "stop_name": "Frunze Dovlatyan Street" }, "geometry": { "type": "Point", "coordinates": [ 44.483104285, 40.13895635 ] } },
{ "type": "Feature", "properties": { "transport_id": "4714727743", "line_id": "4714727133", "stop_id": "5402420976", "stop_name": "Nerkin Shengavit" }, "geometry": { "type": "Point", "coordinates": [ 44.480885073, 40.139384704 ] } },
{ "type": "Feature", "properties": { "transport_id": "4714727743", "line_id": "4714727133", "stop_id": "4049882988", "stop_name": "Shahamiryanner Street" }, "geometry": { "type": "Point", "coordinates": [ 44.482896232, 40.14209773 ] } },
{ "type": "Feature", "properties": { "transport_id": "4714727743", "line_id": "4714727133", "stop_id": "4315747258", "stop_name": "Taronts Street" }, "geometry": { "type": "Point", "coordinates": [ 44.484231407, 40.143476462 ] } },
{ "type": "Feature", "properties": { "transport_id": "4714727743", "line_id": "4714727133", "stop_id": "4045345298", "stop_name": "Taronts Street" }, "geometry": { "type": "Point", "coordinates": [ 44.485479918, 40.1461088 ] } },
{ "type": "Feature", "properties": { "transport_id": "4714727743", "line_id": "4714727133", "stop_id": "1733730151", "stop_name": "Garegin Nzhdeh Square" }, "geometry": { "type": "Point", "coordinates": [ 44.484598357, 40.150942794 ] } },
{ "type": "Feature", "properties": { "transport_id": "4714727743", "line_id": "4714727133", "stop_id": "1787752246", "stop_name": "Hayreniq Trade Center" }, "geometry": { "type": "Point", "coordinates": [ 44.490832774, 40.151471757 ] } },
{ "type": "Feature", "properties": { "transport_id": "4714727743", "line_id": "4714727133", "stop_id": "1733730621", "stop_name": "Tashir Pizza" }, "geometry": { "type": "Point", "coordinates": [ 44.496073794, 40.151916459 ] } },
{ "type": "Feature", "properties": { "transport_id": "4714727743", "line_id": "4714727133", "stop_id": "1787749186", "stop_name": "Hayreniq" }, "geometry": { "type": "Point", "coordinates": [ 44.498984294, 40.152769462 ] } },
{ "type": "Feature", "properties": { "transport_id": "4714727743", "line_id": "4714727133", "stop_id": "1733281891", "stop_name": "Viasphere Technopark" }, "geometry": { "type": "Point", "coordinates": [ 44.501443446, 40.156113247 ] } },
{ "type": "Feature", "properties": { "transport_id": "4714727743", "line_id": "4714727133", "stop_id": "3467602055", "stop_name": "Komitas Park" }, "geometry": { "type": "Point", "coordinates": [ 44.503335932, 40.160212263 ] } },
{ "type": "Feature", "properties": { "transport_id": "4714727743", "line_id": "4714727133", "stop_id": "2059802684", "stop_name": "Surmalu" }, "geometry": { "type": "Point", "coordinates": [ 44.504449842, 40.163569505 ] } },
{ "type": "Feature", "properties": { "transport_id": "4714727743", "line_id": "4714727133", "stop_id": "1962137618", "stop_name": "Surmalu" }, "geometry": { "type": "Point", "coordinates": [ 44.506178606, 40.167024607 ] } },
{ "type": "Feature", "properties": { "transport_id": "4714727743", "line_id": "4714727133", "stop_id": "1733136811", "stop_name": "Circus" }, "geometry": { "type": "Point", "coordinates": [ 44.510457558, 40.17174555 ] } },
{ "type": "Feature", "properties": { "transport_id": "4714727743", "line_id": "4714727133", "stop_id": "1733271701", "stop_name": "Luna Park" }, "geometry": { "type": "Point", "coordinates": [ 44.516620542, 40.173493197 ] } },
{ "type": "Feature", "properties": { "transport_id": "4714727743", "line_id": "4714727133", "stop_id": "1543190336", "stop_name": "Vernissage" }, "geometry": { "type": "Point", "coordinates": [ 44.519994019, 40.174633366 ] } },
{ "type": "Feature", "properties": { "transport_id": "4714727743", "line_id": "4714727133", "stop_id": "1788128356", "stop_name": "Chess House" }, "geometry": { "type": "Point", "coordinates": [ 44.523771883, 40.180206484 ] } },
{ "type": "Feature", "properties": { "transport_id": "4714727743", "line_id": "4714727133", "stop_id": "1985580091", "stop_name": "Chamber music" }, "geometry": { "type": "Point", "coordinates": [ 44.524305916, 40.184693892 ] } },
{ "type": "Feature", "properties": { "transport_id": "4714727743", "line_id": "4714727133", "stop_id": "1733136141", "stop_name": "Yeritasardakan" }, "geometry": { "type": "Point", "coordinates": [ 44.52292682, 40.186961216 ] } },
{ "type": "Feature", "properties": { "transport_id": "4714727743", "line_id": "4714727133", "stop_id": "1733131921", "stop_name": "Medical University" }, "geometry": { "type": "Point", "coordinates": [ 44.52479741, 40.18855893 ] } },
{ "type": "Feature", "properties": { "transport_id": "4714727743", "line_id": "4714727133", "stop_id": "1738680271", "stop_name": "Khachatur Abovyan Square" }, "geometry": { "type": "Point", "coordinates": [ 44.527690624, 40.19102719 ] } },
{ "type": "Feature", "properties": { "transport_id": "4714727743", "line_id": "4714727133", "stop_id": "1788095726", "stop_name": "Bellagio" }, "geometry": { "type": "Point", "coordinates": [ 44.534304599, 40.193326944 ] } },
{ "type": "Feature", "properties": { "transport_id": "4714727743", "line_id": "4714727133", "stop_id": "1788012836", "stop_name": "Myasnikyan Avenue, 14" }, "geometry": { "type": "Point", "coordinates": [ 44.537754144, 40.195193673 ] } },
{ "type": "Feature", "properties": { "transport_id": "4714727743", "line_id": "4714727133", "stop_id": "1788012536", "stop_name": "Yerevan Zoo" }, "geometry": { "type": "Point", "coordinates": [ 44.547040811, 40.195581345 ] } },
{ "type": "Feature", "properties": { "transport_id": "4714727743", "line_id": "4714727133", "stop_id": "1787769616", "stop_name": "Waterworld" }, "geometry": { "type": "Point", "coordinates": [ 44.556438415, 40.203571286 ] } },
{ "type": "Feature", "properties": { "transport_id": "4714727743", "line_id": "4714727133", "stop_id": "1543190019", "stop_name": "Botanical Garden" }, "geometry": { "type": "Point", "coordinates": [ 44.56094036, 40.209317323 ] } },
{ "type": "Feature", "properties": { "transport_id": "4714727743", "line_id": "4714727133", "stop_id": "3471124935", "stop_name": "Hrachya Acharyan / Tsarav Aghbyur" }, "geometry": { "type": "Point", "coordinates": [ 44.562609057, 40.213394488 ] } },
{ "type": "Feature", "properties": { "transport_id": "4714727743", "line_id": "4714727133", "stop_id": "1733274581", "stop_name": "Play City" }, "geometry": { "type": "Point", "coordinates": [ 44.562050448, 40.218115947 ] } },
{ "type": "Feature", "properties": { "transport_id": "4714727743", "line_id": "4714727133", "stop_id": "4046629768", "stop_name": "University of Traditional Medicine" }, "geometry": { "type": "Point", "coordinates": [ 44.564071387, 40.219402503 ] } },
{ "type": "Feature", "properties": { "transport_id": "4714727743", "line_id": "4714727133", "stop_id": "4046630118", "stop_name": "Marshal Babajanyan Street, 11" }, "geometry": { "type": "Point", "coordinates": [ 44.569730839, 40.219496616 ] } },
{ "type": "Feature", "properties": { "transport_id": "4714727743", "line_id": "4714727133", "stop_id": "5529935787", "stop_name": "Basic Centre" }, "geometry": { "type": "Point", "coordinates": [ 44.572247702, 40.219714746 ] } },
{ "type": "Feature", "properties": { "transport_id": "4714727743", "line_id": "4714727133", "stop_id": "1543189843", "stop_name": "Marshal Babajanyan / Almaty" }, "geometry": { "type": "Point", "coordinates": [ 44.577738578, 40.220395489 ] } },
{ "type": "Feature", "properties": { "transport_id": "4714727743", "line_id": "4714727133", "stop_id": "4045851688", "stop_name": "Marshal Babajanyan Street, 41" }, "geometry": { "type": "Point", "coordinates": [ 44.581859445, 40.220603078 ] } },
{ "type": "Feature", "properties": { "transport_id": "4714727743", "line_id": "4714727133", "stop_id": "4959394856", "stop_name": "Avan" }, "geometry": { "type": "Point", "coordinates": [ 44.582531006, 40.217740001 ] } },
{ "type": "Feature", "properties": { "transport_id": "4714727743", "line_id": "4714727133", "stop_id": "5420717386", "stop_name": "Nver Safaryan Street, 75" }, "geometry": { "type": "Point", "coordinates": [ 44.585615546, 40.214538541 ] } },
{ "type": "Feature", "properties": { "transport_id": "4714727743", "line_id": "4714727133", "stop_id": "1543189800", "stop_name": "Nver Safaryan Street, 14" }, "geometry": { "type": "Point", "coordinates": [ 44.584315962, 40.213340171 ] } },
{ "type": "Feature", "properties": { "transport_id": "4714727743", "line_id": "4714727133", "stop_id": "1898219181", "stop_name": "Nver Safaryan Street, 44" }, "geometry": { "type": "Point", "coordinates": [ 44.581422249, 40.211576689 ] } },
{ "type": "Feature", "properties": { "transport_id": "4714727743", "line_id": "4714727133", "stop_id": "1543189837", "stop_name": "Nver Safaryan Street, 48" }, "geometry": { "type": "Point", "coordinates": [ 44.578446388, 40.210546098 ] } },
{ "type": "Feature", "properties": { "transport_id": "4714727743", "line_id": "4714727133", "stop_id": "1543189904", "stop_name": "Marshal Khudyakov / Nver Safaryan" }, "geometry": { "type": "Point", "coordinates": [ 44.571858957, 40.212888001 ] } },
{ "type": "Feature", "properties": { "transport_id": "4714727743", "line_id": "4714727133", "stop_id": "4048931268", "stop_name": "Marshal Khudyakov Street, 70" }, "geometry": { "type": "Point", "coordinates": [ 44.569618333, 40.212216427 ] } },
{ "type": "Feature", "properties": { "transport_id": "4714727743", "line_id": "4714727133", "stop_id": "5652267047", "stop_name": "Улица Маршала Худякова / 6-я улица Авана" }, "geometry": { "type": "Point", "coordinates": [ 44.566024043, 40.21076317 ] } },
{ "type": "Feature", "properties": { "transport_id": "4714727743", "line_id": "4714727133", "stop_id": "4048930828", "stop_name": "Marshal Khudyakov / Avan 4th Street" }, "geometry": { "type": "Point", "coordinates": [ 44.563550505, 40.209682452 ] } },
{ "type": "Feature", "properties": { "transport_id": "4714728823", "line_id": "4714727133", "stop_id": "1543189988", "stop_name": "Marshal Khudyakov / Avan 4th Street" }, "geometry": { "type": "Point", "coordinates": [ 44.563602, 40.209582 ] } },
{ "type": "Feature", "properties": { "transport_id": "4714728823", "line_id": "4714727133", "stop_id": "5652270877", "stop_name": "Улица Маршала Худякова / 6-я улица Авана" }, "geometry": { "type": "Point", "coordinates": [ 44.566354042, 40.210795489 ] } },
{ "type": "Feature", "properties": { "transport_id": "4714728823", "line_id": "4714727133", "stop_id": "1543189925", "stop_name": "Marshal Khudyakov Street, 70" }, "geometry": { "type": "Point", "coordinates": [ 44.569795475, 40.212143803 ] } },
{ "type": "Feature", "properties": { "transport_id": "4714728823", "line_id": "4714727133", "stop_id": "1787764886", "stop_name": "Marshal Khudyakov / Nver Safaryan" }, "geometry": { "type": "Point", "coordinates": [ 44.57203907, 40.212792465 ] } },
{ "type": "Feature", "properties": { "transport_id": "4714728823", "line_id": "4714727133", "stop_id": "4046424688", "stop_name": "Nver Safaryan Street, 48" }, "geometry": { "type": "Point", "coordinates": [ 44.578457829, 40.210456798 ] } },
{ "type": "Feature", "properties": { "transport_id": "4714728823", "line_id": "4714727133", "stop_id": "4046628788", "stop_name": "Nver Safaryan Street, 44" }, "geometry": { "type": "Point", "coordinates": [ 44.581800572, 40.211624727 ] } },
{ "type": "Feature", "properties": { "transport_id": "4714728823", "line_id": "4714727133", "stop_id": "4044710658", "stop_name": "Nver Safaryan Street, 11" }, "geometry": { "type": "Point", "coordinates": [ 44.585804082, 40.214560541 ] } },
{ "type": "Feature", "properties": { "transport_id": "4714728823", "line_id": "4714727133", "stop_id": "1543189810", "stop_name": "Avan" }, "geometry": { "type": "Point", "coordinates": [ 44.582528499, 40.217987012 ] } },
{ "type": "Feature", "properties": { "transport_id": "4714728823", "line_id": "4714727133", "stop_id": "1543189815", "stop_name": "Marshal Babajanyan Street, 41" }, "geometry": { "type": "Point", "coordinates": [ 44.581863997, 40.220777484 ] } },
{ "type": "Feature", "properties": { "transport_id": "4714728823", "line_id": "4714727133", "stop_id": "1543189854", "stop_name": "Marshal Babajanyan / Ashxabad" }, "geometry": { "type": "Point", "coordinates": [ 44.576023223, 40.220474135 ] } },
{ "type": "Feature", "properties": { "transport_id": "4714728823", "line_id": "4714727133", "stop_id": "3457701755", "stop_name": "Marshal Babajanyan Street, 56" }, "geometry": { "type": "Point", "coordinates": [ 44.574282274, 40.220414722 ] } },
{ "type": "Feature", "properties": { "transport_id": "4714728823", "line_id": "4714727133", "stop_id": "1543189912", "stop_name": "Basic Centre" }, "geometry": { "type": "Point", "coordinates": [ 44.572517626, 40.219958112 ] } },
{ "type": "Feature", "properties": { "transport_id": "4714728823", "line_id": "4714727133", "stop_id": "2060211554", "stop_name": "Marshal Babajanyan Street, 11" }, "geometry": { "type": "Point", "coordinates": [ 44.568961638, 40.219754436 ] } },
{ "type": "Feature", "properties": { "transport_id": "4714728823", "line_id": "4714727133", "stop_id": "1543189960", "stop_name": "Mental Health Center" }, "geometry": { "type": "Point", "coordinates": [ 44.567186145, 40.219968893 ] } },
{ "type": "Feature", "properties": { "transport_id": "4714728823", "line_id": "4714727133", "stop_id": "3118954757", "stop_name": "University of Traditional Medicine" }, "geometry": { "type": "Point", "coordinates": [ 44.564007054, 40.219585468 ] } },
{ "type": "Feature", "properties": { "transport_id": "4714728823", "line_id": "4714727133", "stop_id": "1543190012", "stop_name": "Play City" }, "geometry": { "type": "Point", "coordinates": [ 44.561630022, 40.218555562 ] } },
{ "type": "Feature", "properties": { "transport_id": "4714728823", "line_id": "4714727133", "stop_id": "1543190004", "stop_name": "Hrachya Acharyan / Tsarav Aghbyur" }, "geometry": { "type": "Point", "coordinates": [ 44.562387013, 40.213623258 ] } },
{ "type": "Feature", "properties": { "transport_id": "4714728823", "line_id": "4714727133", "stop_id": "1543190023", "stop_name": "Botanical Garden" }, "geometry": { "type": "Point", "coordinates": [ 44.560521935, 40.209356395 ] } },
{ "type": "Feature", "properties": { "transport_id": "4714728823", "line_id": "4714727133", "stop_id": "1543190059", "stop_name": "Waterworld" }, "geometry": { "type": "Point", "coordinates": [ 44.555750774, 40.203277729 ] } },
{ "type": "Feature", "properties": { "transport_id": "4714728823", "line_id": "4714727133", "stop_id": "1788004466", "stop_name": "Myasnikyan Avenue, 55/5" }, "geometry": { "type": "Point", "coordinates": [ 44.551133728, 40.198947751 ] } },
{ "type": "Feature", "properties": { "transport_id": "4714728823", "line_id": "4714727133", "stop_id": "1543190128", "stop_name": "Yerevan Zoo" }, "geometry": { "type": "Point", "coordinates": [ 44.547104644, 40.19589327 ] } },
{ "type": "Feature", "properties": { "transport_id": "4714728823", "line_id": "4714727133", "stop_id": "1788010026", "stop_name": "Myasnikyan Avenue, 14" }, "geometry": { "type": "Point", "coordinates": [ 44.538391254, 40.195361241 ] } },
{ "type": "Feature", "properties": { "transport_id": "4714728823", "line_id": "4714727133", "stop_id": "1543190261", "stop_name": "Khachatur Abovyan Square" }, "geometry": { "type": "Point", "coordinates": [ 44.52730752, 40.191171644 ] } },
{ "type": "Feature", "properties": { "transport_id": "4714728823", "line_id": "4714727133", "stop_id": "1734372701", "stop_name": "Agricultural University" }, "geometry": { "type": "Point", "coordinates": [ 44.525837942, 40.189909996 ] } },
{ "type": "Feature", "properties": { "transport_id": "4714728823", "line_id": "4714727133", "stop_id": "1733131781", "stop_name": "Yeritasardakan" }, "geometry": { "type": "Point", "coordinates": [ 44.523412684, 40.18775738 ] } },
{ "type": "Feature", "properties": { "transport_id": "4714728823", "line_id": "4714727133", "stop_id": "3841023920", "stop_name": "University of Economics" }, "geometry": { "type": "Point", "coordinates": [ 44.523151518, 40.184028645 ] } },
{ "type": "Feature", "properties": { "transport_id": "4714728823", "line_id": "4714727133", "stop_id": "1543190291", "stop_name": "Khanjyan / Sayat Nova" }, "geometry": { "type": "Point", "coordinates": [ 44.523613234, 40.181230847 ] } },
{ "type": "Feature", "properties": { "transport_id": "4714728823", "line_id": "4714727133", "stop_id": "1543190305", "stop_name": "Khanjyan / Tumanyan" }, "geometry": { "type": "Point", "coordinates": [ 44.522594948, 40.177972659 ] } },
{ "type": "Feature", "properties": { "transport_id": "4714728823", "line_id": "4714727133", "stop_id": "1543190342", "stop_name": "Vernissage" }, "geometry": { "type": "Point", "coordinates": [ 44.519821532, 40.174867757 ] } },
{ "type": "Feature", "properties": { "transport_id": "4714728823", "line_id": "4714727133", "stop_id": "1543190379", "stop_name": "Pedagogical University" }, "geometry": { "type": "Point", "coordinates": [ 44.516361466, 40.173671271 ] } },
{ "type": "Feature", "properties": { "transport_id": "4714728823", "line_id": "4714727133", "stop_id": "1733136391", "stop_name": "Circus" }, "geometry": { "type": "Point", "coordinates": [ 44.510764121, 40.172201232 ] } },
{ "type": "Feature", "properties": { "transport_id": "4714728823", "line_id": "4714727133", "stop_id": "1733282021", "stop_name": "Arshakunyats Avenue, 6" }, "geometry": { "type": "Point", "coordinates": [ 44.507673727, 40.169934058 ] } },
{ "type": "Feature", "properties": { "transport_id": "4714728823", "line_id": "4714727133", "stop_id": "1962137548", "stop_name": "Surmalu" }, "geometry": { "type": "Point", "coordinates": [ 44.505785108, 40.167138307 ] } },
{ "type": "Feature", "properties": { "transport_id": "4714728823", "line_id": "4714727133", "stop_id": "1733309421", "stop_name": "Arshakunyats Avenue, 26" }, "geometry": { "type": "Point", "coordinates": [ 44.504057671, 40.163816114 ] } },
{ "type": "Feature", "properties": { "transport_id": "4714728823", "line_id": "4714727133", "stop_id": "1733309331", "stop_name": "Komitas Park" }, "geometry": { "type": "Point", "coordinates": [ 44.503080491, 40.160617065 ] } },
{ "type": "Feature", "properties": { "transport_id": "4714728823", "line_id": "4714727133", "stop_id": "1733309591", "stop_name": "Arshakunyats Avenue, 30" }, "geometry": { "type": "Point", "coordinates": [ 44.501506038, 40.157077586 ] } },
{ "type": "Feature", "properties": { "transport_id": "4714728823", "line_id": "4714727133", "stop_id": "1733306691", "stop_name": "Tashir Pizza" }, "geometry": { "type": "Point", "coordinates": [ 44.496128069, 40.152121302 ] } },
{ "type": "Feature", "properties": { "transport_id": "4714728823", "line_id": "4714727133", "stop_id": "1787752376", "stop_name": "Hayreniq Trade Center" }, "geometry": { "type": "Point", "coordinates": [ 44.490873998, 40.151712859 ] } },
{ "type": "Feature", "properties": { "transport_id": "4714728823", "line_id": "4714727133", "stop_id": "1724546640", "stop_name": "Garegin Nzhdeh Square" }, "geometry": { "type": "Point", "coordinates": [ 44.483835109, 40.151409455 ] } },
{ "type": "Feature", "properties": { "transport_id": "4714728823", "line_id": "4714727133", "stop_id": "1724546660", "stop_name": "Garegin Nzhdeh Square" }, "geometry": { "type": "Point", "coordinates": [ 44.48265183, 40.150952364 ] } },
{ "type": "Feature", "properties": { "transport_id": "4714728823", "line_id": "4714727133", "stop_id": "1724546680", "stop_name": "Bagratunyats Street, 20" }, "geometry": { "type": "Point", "coordinates": [ 44.484479317, 40.150109988 ] } },
{ "type": "Feature", "properties": { "transport_id": "4714728823", "line_id": "4714727133", "stop_id": "4045345198", "stop_name": "Taronts Street" }, "geometry": { "type": "Point", "coordinates": [ 44.485410181, 40.146172609 ] } },
{ "type": "Feature", "properties": { "transport_id": "4714728823", "line_id": "4714727133", "stop_id": "4315747308", "stop_name": "Taronts Street" }, "geometry": { "type": "Point", "coordinates": [ 44.484097296, 40.143472345 ] } },
{ "type": "Feature", "properties": { "transport_id": "4714728823", "line_id": "4714727133", "stop_id": "4049882898", "stop_name": "Shahamiryanner Street" }, "geometry": { "type": "Point", "coordinates": [ 44.482915007, 40.14219242 ] } },
{ "type": "Feature", "properties": { "transport_id": "4714728823", "line_id": "4714727133", "stop_id": "4049878778", "stop_name": "Nerkin Shengavit" }, "geometry": { "type": "Point", "coordinates": [ 44.480760349, 40.139194375 ] } },
{ "type": "Feature", "properties": { "transport_id": "4714728823", "line_id": "4714727133", "stop_id": "5402422056", "stop_name": "Frunze Dovlatyan Street" }, "geometry": { "type": "Point", "coordinates": [ 44.483104285, 40.13895635 ] } }
]
}
